[
    {
        "name": "orioru-eru",
        "phone": "8948837847",
        "location": "Ibadan",
        "pin": "67UD",
        "farm_size": "90",
        "major_crop": "Maize"
    },
    {
        "name": "Bolumole Koker",
        "phone": "08099889893",
        "location": "Abeokuta",
        "pin": "57IR",
        "farm_size": "200",
        "major_crop": "Cassava"
    },
    {
        "name": "Agbekorode Victor",
        "phone": "090887436356",
        "location": "lagos",
        "pin": "28XH",
        "farm_size": "30",
        "major_crop": "Yam, Cassava"
    },
    {
        "name": "bolumole koker",
        "phone": "00493883948",
        "location": "Ibadan",
        "pin": "01AE",
        "farm_size": "600",
        "major_crop": "Yam"
    },
    {
        "name": "Boladele",
        "phone": "9884773837",
        "location": "Ogun",
        "pin": "93QA",
        "farm_size": "5",
        "major_crop": "Apple"
    },
    {
        "name": "Shobowale",
        "phone": "887373793",
        "location": "Ilorin",
        "pin": "28FQ",
        "farm_size": "400",
        "major_crop": "Yam"
    },
    {
        "name": "Bolanle Onikerosine",
        "phone": "8847738487",
        "location": "Lagos",
        "pin": "67LK",
        "farm_size": "50",
        "major_crop": "Cassava"
    },
    {
        "name": "Mr Olaosebikan",
        "phone": "8773847738",
        "location": "Ekiti",
        "pin": "92BE",
        "farm_size": "70",
        "major_crop": "Maize"
    },
    {
        "name": "Asake Online",
        "phone": "73837372847",
        "location": "Ogun",
        "pin": "92VQ",
        "farm_size": "80",
        "major_crop": "Maize"
    },
    {
        "name": "Obasanjo",
        "phone": "8377728474",
        "location": "Ogun",
        "pin": "41KW",
        "farm_size": "800",
        "major_crop": "Yam"
    }
]